{
"type": "FeatureCollection",
"name": "healthcare",
"crs": { "type": "name", "properties": { "name": "urn:ogc:def:crs:OGC:1.3:CRS84" } },
"features": [
{ "type": "Feature", "properties": { "element": "node", "id": 2733630669, "amenity": "pharmacy", "name": "داروخانه دکتر میرشمسی", "operator": null, "phone": null, "addr:street": null }, "geometry": { "type": "Point", "coordinates": [ 54.3616165, 31.9146124 ] } },
{ "type": "Feature", "properties": { "element": "node", "id": 2868216894, "amenity": "clinic", "name": "پلی‌کلینیک آموزشی درمانی بقائی‌پور", "operator": null, "phone": null, "addr:street": null }, "geometry": { "type": "Point", "coordinates": [ 54.3761879, 31.8240317 ] } },
{ "type": "Feature", "properties": { "element": "node", "id": 2903451882, "amenity": "clinic", "name": "درمانگاه شبانه روزی کوثر", "operator": null, "phone": null, "addr:street": null }, "geometry": { "type": "Point", "coordinates": [ 54.388092, 31.8326398 ] } },
{ "type": "Feature", "properties": { "element": "node", "id": 2999081126, "amenity": "pharmacy", "name": null, "operator": null, "phone": null, "addr:street": "امام خمینی" }, "geometry": { "type": "Point", "coordinates": [ 54.3778147, 31.9079492 ] } },
{ "type": "Feature", "properties": { "element": "node", "id": 2999419460, "amenity": "pharmacy", "name": "داروخانه فرخی", "operator": null, "phone": null, "addr:street": "فرخی" }, "geometry": { "type": "Point", "coordinates": [ 54.360797, 31.8874484 ] } },
{ "type": "Feature", "properties": { "element": "node", "id": 2999507993, "amenity": "clinic", "name": "مجتمع پزشکی بسیجیان", "operator": null, "phone": null, "addr:street": null }, "geometry": { "type": "Point", "coordinates": [ 54.3445203, 31.8999972 ] } },
{ "type": "Feature", "properties": { "element": "node", "id": 3244128813, "amenity": "pharmacy", "name": null, "operator": null, "phone": null, "addr:street": null }, "geometry": { "type": "Point", "coordinates": [ 54.3760498, 31.8884242 ] } },
{ "type": "Feature", "properties": { "element": "node", "id": 3279035469, "amenity": "pharmacy", "name": null, "operator": null, "phone": null, "addr:street": null }, "geometry": { "type": "Point", "coordinates": [ 54.3296689, 31.9005761 ] } },
{ "type": "Feature", "properties": { "element": "node", "id": 3279035492, "amenity": "pharmacy", "name": null, "operator": null, "phone": null, "addr:street": null }, "geometry": { "type": "Point", "coordinates": [ 54.3253464, 31.9075152 ] } },
{ "type": "Feature", "properties": { "element": "node", "id": 3859865528, "amenity": "hospital", "name": "بیمارستان مجیبیان", "operator": null, "phone": null, "addr:street": null }, "geometry": { "type": "Point", "coordinates": [ 54.3777046, 31.8711327 ] } },
{ "type": "Feature", "properties": { "element": "node", "id": 4231106497, "amenity": "pharmacy", "name": "داروخانه دکتر انتظاری", "operator": null, "phone": null, "addr:street": null }, "geometry": { "type": "Point", "coordinates": [ 54.2319433, 31.9905972 ] } },
{ "type": "Feature", "properties": { "element": "node", "id": 4231107800, "amenity": "pharmacy", "name": "داروخانه دکتر شجاع الدینی", "operator": null, "phone": null, "addr:street": null }, "geometry": { "type": "Point", "coordinates": [ 54.2290286, 31.9893687 ] } },
{ "type": "Feature", "properties": { "element": "node", "id": 4231111127, "amenity": "pharmacy", "name": "داروخانه دکتر بابایی", "operator": null, "phone": null, "addr:street": null }, "geometry": { "type": "Point", "coordinates": [ 54.2279538, 31.9947161 ] } },
{ "type": "Feature", "properties": { "element": "node", "id": 4231116989, "amenity": "clinic", "name": "درمانگاه جوادالایمه", "operator": null, "phone": null, "addr:street": null }, "geometry": { "type": "Point", "coordinates": [ 54.2279487, 31.9947327 ] } },
{ "type": "Feature", "properties": { "element": "node", "id": 4262122721, "amenity": "clinic", "name": "مرکز جامع توانبخشی شهید دکتر فیاض بخش", "operator": null, "phone": null, "addr:street": null }, "geometry": { "type": "Point", "coordinates": [ 54.3042902, 31.8675242 ] } },
{ "type": "Feature", "properties": { "element": "node", "id": 4289067491, "amenity": "doctors", "name": "دکتر سهیلا میرجلیلی", "operator": null, "phone": null, "addr:street": null }, "geometry": { "type": "Point", "coordinates": [ 54.3584082, 31.8433884 ] } },
{ "type": "Feature", "properties": { "element": "node", "id": 4289119689, "amenity": "pharmacy", "name": "داروخانه دکتر کرامتی", "operator": null, "phone": null, "addr:street": null }, "geometry": { "type": "Point", "coordinates": [ 54.3517678, 31.8444958 ] } },
{ "type": "Feature", "properties": { "element": "node", "id": 4289121689, "amenity": "clinic", "name": "درمانگاه کسری", "operator": null, "phone": "+98 35 3820 1222", "addr:street": null }, "geometry": { "type": "Point", "coordinates": [ 54.3588886, 31.8443442 ] } },
{ "type": "Feature", "properties": { "element": "node", "id": 4289121692, "amenity": "pharmacy", "name": "داروخانه دکتر حیدری", "operator": null, "phone": "+98 35 3821 5999", "addr:street": "بلوار پروفسور حسابی" }, "geometry": { "type": "Point", "coordinates": [ 54.3602142, 31.8450189 ] } },
{ "type": "Feature", "properties": { "element": "node", "id": 4333981593, "amenity": "clinic", "name": "درمانگاه ایران مهر", "operator": null, "phone": null, "addr:street": null }, "geometry": { "type": "Point", "coordinates": [ 54.3293999, 31.849254 ] } },
{ "type": "Feature", "properties": { "element": "node", "id": 4362369191, "amenity": "pharmacy", "name": "داروخانه شبانه روزی دکتر سهروردی", "operator": null, "phone": null, "addr:street": "میدان ابوذر" }, "geometry": { "type": "Point", "coordinates": [ 54.3856821, 31.8440285 ] } },
{ "type": "Feature", "properties": { "element": "node", "id": 4606679589, "amenity": "hospital", "name": "بیمارستان مادر", "operator": null, "phone": null, "addr:street": null }, "geometry": { "type": "Point", "coordinates": [ 54.3604179, 31.8761009 ] } },
{ "type": "Feature", "properties": { "element": "node", "id": 4621578592, "amenity": "hospital", "name": "مرکز مطالعات وتحقیقات ناباروری یزد", "operator": null, "phone": "+98 35 3824 8122", "addr:street": "بوعلی" }, "geometry": { "type": "Point", "coordinates": [ 54.3848794, 31.8333922 ] } },
{ "type": "Feature", "properties": { "element": "node", "id": 4755896961, "amenity": "clinic", "name": "درمانگاه تخصصی سیدالشهدا", "operator": null, "phone": null, "addr:street": null }, "geometry": { "type": "Point", "coordinates": [ 54.2931351, 31.9342752 ] } },
{ "type": "Feature", "properties": { "element": "node", "id": 4942434822, "amenity": "pharmacy", "name": "داروخانه شبانه روزی ابن سینا", "operator": null, "phone": null, "addr:street": "بلوار جمهوری اسلامی" }, "geometry": { "type": "Point", "coordinates": [ 54.3338049, 31.9146958 ] } },
{ "type": "Feature", "properties": { "element": "node", "id": 5005160621, "amenity": "clinic", "name": "کلینیک تخصصی صبا", "operator": null, "phone": "+98 35 3827 4800", "addr:street": null }, "geometry": { "type": "Point", "coordinates": [ 54.3821227, 31.8500074 ] } },
{ "type": "Feature", "properties": { "element": "node", "id": 5005161321, "amenity": "doctors", "name": "مطب دکتر محمد حسین آنتیک چی", "operator": null, "phone": "+98 35 3623 7989", "addr:street": null }, "geometry": { "type": "Point", "coordinates": [ 54.3759831, 31.879786 ] } },
{ "type": "Feature", "properties": { "element": "node", "id": 5006814785, "amenity": "doctors", "name": "مطب دکتر محمد حسین ارجمند", "operator": null, "phone": "+98 35 3624 2170", "addr:street": null }, "geometry": { "type": "Point", "coordinates": [ 54.3754574, 31.8797422 ] } },
{ "type": "Feature", "properties": { "element": "node", "id": 5028991643, "amenity": "pharmacy", "name": null, "operator": null, "phone": null, "addr:street": null }, "geometry": { "type": "Point", "coordinates": [ 54.3738634, 31.9027213 ] } },
{ "type": "Feature", "properties": { "element": "node", "id": 5035014721, "amenity": "pharmacy", "name": "داروخانه دکتر ذبیحی", "operator": null, "phone": null, "addr:street": null }, "geometry": { "type": "Point", "coordinates": [ 54.3809815, 31.8599496 ] } },
{ "type": "Feature", "properties": { "element": "node", "id": 5222131187, "amenity": "pharmacy", "name": "داروخانه", "operator": null, "phone": null, "addr:street": null }, "geometry": { "type": "Point", "coordinates": [ 54.3763871, 31.8248053 ] } },
{ "type": "Feature", "properties": { "element": "node", "id": 5320367121, "amenity": "clinic", "name": "مجتمع درمانی و درمانگاه شبانه روزی ولیعصر", "operator": null, "phone": "+98 35 3725 7373", "addr:street": "همافر" }, "geometry": { "type": "Point", "coordinates": [ 54.3300039, 31.8759215 ] } },
{ "type": "Feature", "properties": { "element": "node", "id": 5467541621, "amenity": "clinic", "name": "مطب دکتر کامجو/دکتر فخرالدینی", "operator": null, "phone": "+983538336119", "addr:street": null }, "geometry": { "type": "Point", "coordinates": [ 54.3631544, 31.814348 ] } },
{ "type": "Feature", "properties": { "element": "node", "id": 5513459204, "amenity": "clinic", "name": "مرکز بین المللی قلب محمد رسوالله یزد", "operator": null, "phone": null, "addr:street": null }, "geometry": { "type": "Point", "coordinates": [ 54.290916, 31.8304725 ] } },
{ "type": "Feature", "properties": { "element": "node", "id": 5687363901, "amenity": "pharmacy", "name": "داروخانه شبانه روزی دکتر شفیعی", "operator": null, "phone": null, "addr:street": null }, "geometry": { "type": "Point", "coordinates": [ 54.3705098, 31.8381677 ] } },
{ "type": "Feature", "properties": { "element": "node", "id": 5970890585, "amenity": "doctors", "name": "گفتار درمانی رسا", "operator": null, "phone": null, "addr:street": null }, "geometry": { "type": "Point", "coordinates": [ 54.3389973, 31.8721271 ] } },
{ "type": "Feature", "properties": { "element": "node", "id": 6140877690, "amenity": "pharmacy", "name": null, "operator": null, "phone": null, "addr:street": null }, "geometry": { "type": "Point", "coordinates": [ 54.376041, 31.9054022 ] } },
{ "type": "Feature", "properties": { "element": "node", "id": 6322749336, "amenity": "clinic", "name": "درمانگاه قائم", "operator": null, "phone": null, "addr:street": null }, "geometry": { "type": "Point", "coordinates": [ 54.385616, 31.8432327 ] } },
{ "type": "Feature", "properties": { "element": "node", "id": 6329261998, "amenity": "pharmacy", "name": "داروخانه شبانه روزی", "operator": null, "phone": null, "addr:street": null }, "geometry": { "type": "Point", "coordinates": [ 54.3739341, 31.8795414 ] } },
{ "type": "Feature", "properties": { "element": "node", "id": 6424943085, "amenity": "pharmacy", "name": "داروخانه آرمان", "operator": null, "phone": null, "addr:street": "خیابان چمران" }, "geometry": { "type": "Point", "coordinates": [ 54.3767533, 31.8776495 ] } },
{ "type": "Feature", "properties": { "element": "node", "id": 6429807885, "amenity": "pharmacy", "name": "داروخانه دکتر قاسمی", "operator": null, "phone": null, "addr:street": null }, "geometry": { "type": "Point", "coordinates": [ 54.3770472, 31.8744475 ] } },
{ "type": "Feature", "properties": { "element": "node", "id": 6438346489, "amenity": "doctors", "name": "کلینیک سرطان دکتر سیدمحمدرضا مرتضویزاده", "operator": null, "phone": null, "addr:street": "طالقانی" }, "geometry": { "type": "Point", "coordinates": [ 54.3556653, 31.8856369 ] } },
{ "type": "Feature", "properties": { "element": "node", "id": 6466747285, "amenity": "pharmacy", "name": "داروخانه دکتر مربی", "operator": null, "phone": null, "addr:street": null }, "geometry": { "type": "Point", "coordinates": [ 54.3773274, 31.8717052 ] } },
{ "type": "Feature", "properties": { "element": "node", "id": 6506253785, "amenity": "pharmacy", "name": "داروخانه دکتر وکیلیان", "operator": null, "phone": null, "addr:street": null }, "geometry": { "type": "Point", "coordinates": [ 54.3846753, 31.8714012 ] } },
{ "type": "Feature", "properties": { "element": "node", "id": 6536121285, "amenity": "pharmacy", "name": "داروخانه دکتر لطفعلیانی", "operator": null, "phone": null, "addr:street": null }, "geometry": { "type": "Point", "coordinates": [ 54.3302001, 31.8759837 ] } },
{ "type": "Feature", "properties": { "element": "node", "id": 6567752108, "amenity": "clinic", "name": "درمانگاه تخصصی و فوق تخصصی امام علی علیه السلام", "operator": null, "phone": null, "addr:street": "نواب صفوی" }, "geometry": { "type": "Point", "coordinates": [ 54.3596575, 31.91124 ] } },
{ "type": "Feature", "properties": { "element": "node", "id": 6573704486, "amenity": "hospital", "name": "بيمارستان فاطمه الزهرا", "operator": null, "phone": null, "addr:street": "بیست و دوم" }, "geometry": { "type": "Point", "coordinates": [ 54.3272717, 31.9005622 ] } },
{ "type": "Feature", "properties": { "element": "node", "id": 6726862381, "amenity": "pharmacy", "name": "داروخانه محمودی", "operator": null, "phone": null, "addr:street": null }, "geometry": { "type": "Point", "coordinates": [ 54.193119, 31.7428707 ] } },
{ "type": "Feature", "properties": { "element": "node", "id": 6776356866, "amenity": "pharmacy", "name": "داروخانه امامی", "operator": null, "phone": null, "addr:street": null }, "geometry": { "type": "Point", "coordinates": [ 54.3932347, 31.8907966 ] } },
{ "type": "Feature", "properties": { "element": "node", "id": 6776368286, "amenity": "pharmacy", "name": "داروخانه", "operator": null, "phone": null, "addr:street": null }, "geometry": { "type": "Point", "coordinates": [ 54.3935686, 31.8917082 ] } },
{ "type": "Feature", "properties": { "element": "node", "id": 6852588885, "amenity": "doctors", "name": "علیرضا محقق", "operator": null, "phone": "38223530", "addr:street": "خیابان شهید دشتی کوچه ۶۹" }, "geometry": { "type": "Point", "coordinates": [ 54.3952151, 31.8250818 ] } },
{ "type": "Feature", "properties": { "element": "node", "id": 6858171885, "amenity": "doctors", "name": "سونوگرافی و رادیولوژی دکتر بقائی", "operator": null, "phone": "+98 35 3624 6560", "addr:street": "منتظر قائم" }, "geometry": { "type": "Point", "coordinates": [ 54.3687449, 31.8815743 ] } },
{ "type": "Feature", "properties": { "element": "node", "id": 8762787996, "amenity": "clinic", "name": "کلینیک حاجی مقصودی", "operator": null, "phone": null, "addr:street": null }, "geometry": { "type": "Point", "coordinates": [ 54.3722579, 31.8313822 ] } },
{ "type": "Feature", "properties": { "element": "node", "id": 8762815672, "amenity": "clinic", "name": "مرکز خدمات جامع سلامت شهید فرشاد (مسکن)", "operator": null, "phone": null, "addr:street": null }, "geometry": { "type": "Point", "coordinates": [ 54.3827051, 31.8707745 ] } },
{ "type": "Feature", "properties": { "element": "node", "id": 8765235817, "amenity": "clinic", "name": "درمانگاه شهید اکبری", "operator": null, "phone": null, "addr:street": null }, "geometry": { "type": "Point", "coordinates": [ 54.310897, 31.9119304 ] } },
{ "type": "Feature", "properties": { "element": "node", "id": 9810990034, "amenity": "doctors", "name": "ساختمان پزشکان تریتا", "operator": null, "phone": null, "addr:street": "زمانی" }, "geometry": { "type": "Point", "coordinates": [ 54.3573046, 31.8781794 ] } },
{ "type": "Feature", "properties": { "element": "node", "id": 10106270967, "amenity": "pharmacy", "name": "داروخانه دکتر ابریشم دکتر افلاطونیان", "operator": null, "phone": null, "addr:street": null }, "geometry": { "type": "Point", "coordinates": [ 54.3569639, 31.8756307 ] } },
{ "type": "Feature", "properties": { "element": "node", "id": 10173046681, "amenity": "clinic", "name": "دکتر زهرا نظامی", "operator": null, "phone": "+98353186", "addr:street": "خيابان ابن سينا" }, "geometry": { "type": "Point", "coordinates": [ 54.3765318, 31.8244091 ] } },
{ "type": "Feature", "properties": { "element": "node", "id": 10180298283, "amenity": "doctors", "name": "دکتر منصور سعادتی", "operator": null, "phone": null, "addr:street": "آیت الله کاشانی" }, "geometry": { "type": "Point", "coordinates": [ 54.3833703, 31.8555727 ] } },
{ "type": "Feature", "properties": { "element": "node", "id": 10677818385, "amenity": "clinic", "name": "جمعیت هلال احمر شهرستان یزد", "operator": null, "phone": null, "addr:street": null }, "geometry": { "type": "Point", "coordinates": [ 54.3757716, 31.8754508 ] } },
{ "type": "Feature", "properties": { "element": "node", "id": 10698236708, "amenity": "pharmacy", "name": "داروخانه دکتر شیروانی", "operator": "رحیم شیروانی دخت", "phone": "+98 35 3730 8252", "addr:street": "اسکان" }, "geometry": { "type": "Point", "coordinates": [ 54.30628, 31.8885806 ] } },
{ "type": "Feature", "properties": { "element": "node", "id": 10839248662, "amenity": "pharmacy", "name": "داروخانه دکتر ثقفی", "operator": "دکتر فاطمه ثقفی", "phone": "+98 913 450 4060", "addr:street": "شهید محمود دایی" }, "geometry": { "type": "Point", "coordinates": [ 54.3603054, 31.8854201 ] } },
{ "type": "Feature", "properties": { "element": "node", "id": 10973280619, "amenity": "doctors", "name": "کلینیک زیبایی دکتر عاطفه رحیمی", "operator": null, "phone": null, "addr:street": null }, "geometry": { "type": "Point", "coordinates": [ 54.3818782, 31.8521686 ] } },
{ "type": "Feature", "properties": { "element": "node", "id": 11276958637, "amenity": "clinic", "name": "شبکه بهداشت و درمان مجومرد", "operator": null, "phone": null, "addr:street": null }, "geometry": { "type": "Point", "coordinates": [ 54.1997652, 32.0292195 ] } },
{ "type": "Feature", "properties": { "element": "node", "id": 11563360286, "amenity": "pharmacy", "name": "داروخانه شبانه روزی دکتر حکیمی", "operator": null, "phone": null, "addr:street": null }, "geometry": { "type": "Point", "coordinates": [ 54.3557718, 31.8882879 ] } },
{ "type": "Feature", "properties": { "element": "node", "id": 11594280819, "amenity": "doctors", "name": "مطب دکتر مهدی کریمی فوق تخصص ریه", "operator": null, "phone": null, "addr:street": null }, "geometry": { "type": "Point", "coordinates": [ 54.3554833, 31.8853119 ] } },
{ "type": "Feature", "properties": { "element": "node", "id": 11637346372, "amenity": "clinic", "name": "کلینیک تخصصی و فوق تخصصی دیابت یزد", "operator": null, "phone": null, "addr:street": "پل باهنر" }, "geometry": { "type": "Point", "coordinates": [ 54.346367, 31.8861697 ] } },
{ "type": "Feature", "properties": { "element": "node", "id": 11639828853, "amenity": "clinic", "name": "ساختمان پزشکان ایران", "operator": null, "phone": null, "addr:street": "آیت الله کاشانی" }, "geometry": { "type": "Point", "coordinates": [ 54.3778611, 31.8725442 ] } },
{ "type": "Feature", "properties": { "element": "node", "id": 11639837690, "amenity": "doctors", "name": "مجتمع پزشکان سینا", "operator": null, "phone": null, "addr:street": "قرشی" }, "geometry": { "type": "Point", "coordinates": [ 54.3790815, 31.8727034 ] } },
{ "type": "Feature", "properties": { "element": "node", "id": 11639886176, "amenity": "pharmacy", "name": "داروخانه هلال احمر یزد", "operator": null, "phone": null, "addr:street": "منتظر قائم" }, "geometry": { "type": "Point", "coordinates": [ 54.3677108, 31.8817845 ] } },
{ "type": "Feature", "properties": { "element": "node", "id": 11699085902, "amenity": "pharmacy", "name": "داروخانه دکتر لطفی", "operator": null, "phone": null, "addr:street": null }, "geometry": { "type": "Point", "coordinates": [ 54.2929378, 31.9337037 ] } },
{ "type": "Feature", "properties": { "element": "node", "id": 11903647197, "amenity": "doctors", "name": "دکتر سرتیپ زاده(متخصص قلب)", "operator": null, "phone": null, "addr:street": "بقائی" }, "geometry": { "type": "Point", "coordinates": [ 54.3583186, 31.8763567 ] } },
{ "type": "Feature", "properties": { "element": "node", "id": 11903676175, "amenity": "doctors", "name": "دکتر گلشن(متخصص نوزادان)", "operator": null, "phone": null, "addr:street": "گلچین" }, "geometry": { "type": "Point", "coordinates": [ 54.3573005, 31.8799122 ] } },
{ "type": "Feature", "properties": { "element": "node", "id": 11944025399, "amenity": "pharmacy", "name": "داروخانه", "operator": null, "phone": null, "addr:street": "طالقانی" }, "geometry": { "type": "Point", "coordinates": [ 54.3568424, 31.884811 ] } },
{ "type": "Feature", "properties": { "element": "node", "id": 11944034743, "amenity": "doctors", "name": "رادیولوژی و سونوگرافی دی", "operator": null, "phone": null, "addr:street": "طالقانی ۹(بن بست قدس)" }, "geometry": { "type": "Point", "coordinates": [ 54.3587146, 31.8816816 ] } },
{ "type": "Feature", "properties": { "element": "node", "id": 11949178792, "amenity": "pharmacy", "name": "داروخانه", "operator": null, "phone": null, "addr:street": "دکتر مجیبیان" }, "geometry": { "type": "Point", "coordinates": [ 54.3794386, 31.8260977 ] } },
{ "type": "Feature", "properties": { "element": "node", "id": 11949323643, "amenity": "hospital", "name": "اورژانس اطفال بیمارستان شهید صدوقی", "operator": null, "phone": null, "addr:street": "دکتر مجیبیان" }, "geometry": { "type": "Point", "coordinates": [ 54.379857, 31.8247553 ] } },
{ "type": "Feature", "properties": { "element": "node", "id": 12000494839, "amenity": "clinic", "name": "Saman Dental Clinic", "operator": null, "phone": null, "addr:street": null }, "geometry": { "type": "Point", "coordinates": [ 54.3796338, 31.8340296 ] } },
{ "type": "Feature", "properties": { "element": "node", "id": 12105841502, "amenity": "pharmacy", "name": "داروخانه دکتر کفیری", "operator": null, "phone": "035 3823 5529", "addr:street": "بلوار شهید دشتی" }, "geometry": { "type": "Point", "coordinates": [ 54.3965948, 31.8248583 ] } },
{ "type": "Feature", "properties": { "element": "node", "id": 12169384629, "amenity": "clinic", "name": "درمانگاه شبانه روزی رازی", "operator": null, "phone": null, "addr:street": "بلوار دهه فجر" }, "geometry": { "type": "Point", "coordinates": [ 54.3864257, 31.8967335 ] } },
{ "type": "Feature", "properties": { "element": "node", "id": 12309069997, "amenity": "doctors", "name": "مطب دکتر عباسعلی دهقان", "operator": null, "phone": null, "addr:street": null }, "geometry": { "type": "Point", "coordinates": [ 54.3620778, 31.8775855 ] } },
{ "type": "Feature", "properties": { "element": "node", "id": 12325336735, "amenity": "doctors", "name": "مطب دندانپزشکی دکتر فلاحتی", "operator": null, "phone": null, "addr:street": null }, "geometry": { "type": "Point", "coordinates": [ 54.3449303, 31.882832 ] } },
{ "type": "Feature", "properties": { "element": "node", "id": 12328599615, "amenity": "hospital", "name": "مطب فرشته ها", "operator": "دکتر اناهیتا نامداری", "phone": null, "addr:street": "عدالت ۳ - شهید قندی ۲" }, "geometry": { "type": "Point", "coordinates": [ 54.3757091, 31.8351388 ] } },
{ "type": "Feature", "properties": { "element": "node", "id": 12329959716, "amenity": "doctors", "name": "دکتر مهدی نژاد.متخصص ارتوپدی", "operator": null, "phone": null, "addr:street": null }, "geometry": { "type": "Point", "coordinates": [ 54.3838916, 31.8556933 ] } },
{ "type": "Feature", "properties": { "element": "node", "id": 12330037511, "amenity": "doctors", "name": "کلینیک دندانپزشکی آراد", "operator": null, "phone": null, "addr:street": null }, "geometry": { "type": "Point", "coordinates": [ 54.3717753, 31.8365421 ] } },
{ "type": "Feature", "properties": { "element": "node", "id": 12345231021, "amenity": "doctors", "name": "مطب و كلينيك دكتر وحيدفر", "operator": null, "phone": null, "addr:street": null }, "geometry": { "type": "Point", "coordinates": [ 54.3567761, 31.8834606 ] } },
{ "type": "Feature", "properties": { "element": "node", "id": 12401946193, "amenity": "clinic", "name": "درمانگاه حضرت امیر", "operator": null, "phone": null, "addr:street": null }, "geometry": { "type": "Point", "coordinates": [ 54.3252119, 31.89102 ] } },
{ "type": "Feature", "properties": { "element": "node", "id": 12462451123, "amenity": "doctors", "name": "دکتر پارسائیان فلوشیپ فوق تخصصی سوختگی و ترمیمی", "operator": null, "phone": null, "addr:street": null }, "geometry": { "type": "Point", "coordinates": [ 54.3600618, 31.8864492 ] } },
{ "type": "Feature", "properties": { "element": "node", "id": 12467702110, "amenity": "doctors", "name": "مرکز طب سوزنی جدید یزد", "operator": null, "phone": "03536272053", "addr:street": null }, "geometry": { "type": "Point", "coordinates": [ 54.3589583, 31.884057 ] } },
{ "type": "Feature", "properties": { "element": "node", "id": 12475275296, "amenity": "doctors", "name": "دکتر مهدیه کمالی متخصص زنان زایمان", "operator": null, "phone": null, "addr:street": null }, "geometry": { "type": "Point", "coordinates": [ 54.3592352, 31.8805993 ] } },
{ "type": "Feature", "properties": { "element": "node", "id": 12548755056, "amenity": "doctors", "name": "دکتر علی عقیلی جراح-دندانپزشک", "operator": null, "phone": null, "addr:street": null }, "geometry": { "type": "Point", "coordinates": [ 54.3836787, 31.8402145 ] } },
{ "type": "Feature", "properties": { "element": "node", "id": 12588153336, "amenity": "clinic", "name": "پایگاه سلامت شماره۳ آزادشهر", "operator": null, "phone": null, "addr:street": null }, "geometry": { "type": "Point", "coordinates": [ 54.2991667, 31.8667476 ] } },
{ "type": "Feature", "properties": { "element": "node", "id": 12595950134, "amenity": "doctors", "name": "دکتر زهرا السادات ذبحی", "operator": null, "phone": null, "addr:street": null }, "geometry": { "type": "Point", "coordinates": [ 54.3459186, 31.8827605 ] } },
{ "type": "Feature", "properties": { "element": "node", "id": 12651865172, "amenity": "doctors", "name": "کلینیک پوست و مو بیات بیوتی", "operator": null, "phone": "۰۹۳۳۵۰۳۸۶۸۶", "addr:street": null }, "geometry": { "type": "Point", "coordinates": [ 54.3687135, 31.8445831 ] } },
{ "type": "Feature", "properties": { "element": "node", "id": 12732945714, "amenity": "pharmacy", "name": "داروخانه دکتر نبی میبدی", "operator": "دکتر نبی میبدی", "phone": null, "addr:street": "بلوار شهید مطهری" }, "geometry": { "type": "Point", "coordinates": [ 54.3497559, 31.8986518 ] } },
{ "type": "Feature", "properties": { "element": "node", "id": 12784814345, "amenity": "doctors", "name": "مرکز تخصصی ماساژ و کایروپراکتیک دکتر بابائی", "operator": null, "phone": "03538261405", "addr:street": null }, "geometry": { "type": "Point", "coordinates": [ 54.3917655, 31.844425 ] } },
{ "type": "Feature", "properties": { "element": "node", "id": 12826189892, "amenity": "doctors", "name": "دکتر خدارحمی", "operator": "خدارحمی", "phone": null, "addr:street": "شهید گلدان ساز" }, "geometry": { "type": "Point", "coordinates": [ 54.3778184, 31.8726424 ] } },
{ "type": "Feature", "properties": { "element": "node", "id": 13013278017, "amenity": "doctors", "name": "كلينيك قلب ، آنژيوگرافي ، واريس ( دكتر يحيي افتخاري )", "operator": "دكتر يحيي افتخاري", "phone": "+989001519905", "addr:street": null }, "geometry": { "type": "Point", "coordinates": [ 54.3388924, 31.8809009 ] } },
{ "type": "Feature", "properties": { "element": "node", "id": 13050185553, "amenity": "doctors", "name": "دکتر صدیقه حاجی هاشمی متخصص قلب و عروق و انژیوگرافی", "operator": null, "phone": "۰۳۵۳۸۴۱۱۶۳۲", "addr:street": null }, "geometry": { "type": "Point", "coordinates": [ 54.3773382, 31.8733951 ] } },
{ "type": "Feature", "properties": { "element": "node", "id": 13081250134, "amenity": "clinic", "name": "کلینیک سو مصرف مواد رز", "operator": "کلینیک سو مصرف مواد رز", "phone": "+983538203204", "addr:street": null }, "geometry": { "type": "Point", "coordinates": [ 54.3498583, 31.8509624 ] } },
{ "type": "Feature", "properties": { "element": "node", "id": 13140532393, "amenity": "doctors", "name": "دکتر سعید عربی متخصص سرطان", "operator": "دکتر سعید عربی", "phone": "09218472788", "addr:street": "بلوار ابن سینا" }, "geometry": { "type": "Point", "coordinates": [ 54.3759404, 31.8236494 ] } },
{ "type": "Feature", "properties": { "element": "node", "id": 13163684322, "amenity": "doctors", "name": "دکتر محمد جواهرچیان", "operator": null, "phone": "09137755005", "addr:street": null }, "geometry": { "type": "Point", "coordinates": [ 54.3778347, 31.870532 ] } },
{ "type": "Feature", "properties": { "element": "node", "id": 13167350864, "amenity": "doctors", "name": "دکتر سید مسعود هاشمی زاده", "operator": "دکتر سید مسعود هاشمی زاده", "phone": "+9803537253865", "addr:street": "ایثار" }, "geometry": { "type": "Point", "coordinates": [ 54.3569302, 31.8783296 ] } },
{ "type": "Feature", "properties": { "element": "node", "id": 13197354623, "amenity": "doctors", "name": "مطب دكتر پناه بخدا", "operator": null, "phone": "٠٣٥٣٧٢٤٩٥٩٥", "addr:street": null }, "geometry": { "type": "Point", "coordinates": [ 54.3594325, 31.8772244 ] } },
{ "type": "Feature", "properties": { "element": "node", "id": 13198320437, "amenity": "doctors", "name": "مطب دکتر سرداری( متخصص اعصاب و روان ،معاینات گواهینامه)", "operator": "دکتر سرداری", "phone": "03536285503", "addr:street": "آیت الله کاشانی کوچه مریم(48)" }, "geometry": { "type": "Point", "coordinates": [ 54.3756485, 31.8746543 ] } },
{ "type": "Feature", "properties": { "element": "node", "id": 13256696728, "amenity": "doctors", "name": "مطب دکتر سید محسن فانی", "operator": null, "phone": "۰۳۵۳۷۲۸۱۷۶۰", "addr:street": null }, "geometry": { "type": "Point", "coordinates": [ 54.3552826, 31.885197 ] } },
{ "type": "Feature", "properties": { "element": "node", "id": 13278527406, "amenity": "doctors", "name": "کلینیک زخم دیاکو", "operator": null, "phone": "03536242536", "addr:street": null }, "geometry": { "type": "Point", "coordinates": [ 54.3813665, 31.8707398 ] } },
{ "type": "Feature", "properties": { "element": "node", "id": 13279692571, "amenity": "doctors", "name": "خانم دكتر بهاره ميبدي", "operator": null, "phone": "03537339595", "addr:street": null }, "geometry": { "type": "Point", "coordinates": [ 54.3594439, 31.8772961 ] } },
{ "type": "Feature", "properties": { "element": "node", "id": 13284783858, "amenity": "hospital", "name": "مرکز بهداشت آزادشهر", "operator": "دانشکده علوم پزشکی یزد", "phone": null, "addr:street": "جمهوری اسلامی- 20 دهقان منشادی- 26 واعظ" }, "geometry": { "type": "Point", "coordinates": [ 54.3064366, 31.8754513 ] } },
{ "type": "Feature", "properties": { "element": "node", "id": 13358643987, "amenity": "doctors", "name": "دکتر محبوبه دشتی متخصص زنان و زایمان", "operator": null, "phone": "۰۹۹۰۹۳۸۱۲۹۹", "addr:street": null }, "geometry": { "type": "Point", "coordinates": [ 54.3570457, 31.8779908 ] } },
{ "type": "Feature", "properties": { "element": "node", "id": 13358757069, "amenity": "doctors", "name": "فیزیوتراپی صبا(فیزتراپیست محمدعلی دهقانی)", "operator": null, "phone": "03538274803", "addr:street": null }, "geometry": { "type": "Point", "coordinates": [ 54.3822769, 31.8500711 ] } },
{ "type": "Feature", "properties": { "element": "node", "id": 13370788906, "amenity": "doctors", "name": "موسسه رادیولوژی و سونوگرافی بقایی پور", "operator": null, "phone": "03536246560", "addr:street": null }, "geometry": { "type": "Point", "coordinates": [ 54.36868, 31.8815643 ] } },
{ "type": "Feature", "properties": { "element": "node", "id": 13373468968, "amenity": "clinic", "name": "مطب دکتر ستاره شاهینی", "operator": "مطب دکتر ستاره شاهینی", "phone": "+989130717161", "addr:street": null }, "geometry": { "type": "Point", "coordinates": [ 54.3528655, 31.8846159 ] } },
{ "type": "Feature", "properties": { "element": "node", "id": 13375393348, "amenity": "clinic", "name": "مطب دندانپزشکی دکتر دهقان دهنوی", "operator": "مطب دندانپزشکی دکتر دهقان دهنوی", "phone": null, "addr:street": null }, "geometry": { "type": "Point", "coordinates": [ 54.3866167, 31.828859 ] } },
{ "type": "Feature", "properties": { "element": "node", "id": 13383182149, "amenity": "clinic", "name": "مرکز ترک اعتیاد TC پردیس", "operator": null, "phone": "09103330260", "addr:street": null }, "geometry": { "type": "Point", "coordinates": [ 54.2749915, 31.8666384 ] } },
{ "type": "Feature", "properties": { "element": "node", "id": 13392179283, "amenity": "hospital", "name": "مرکز زیبایی پوست و مو روژان", "operator": "پوست و مو", "phone": "03591009798", "addr:street": "وزیری ۱۶" }, "geometry": { "type": "Point", "coordinates": [ 54.3705, 31.8442184 ] } },
{ "type": "Feature", "properties": { "element": "node", "id": 13844110397, "amenity": "doctors", "name": "مطب دکتر شکوفه سنایی", "operator": null, "phone": "09134529872", "addr:street": null }, "geometry": { "type": "Point", "coordinates": [ 54.3708586, 31.8837981 ] } },
{ "type": "Feature", "properties": { "element": "node", "id": 13928373419, "amenity": "doctors", "name": "موسسه سونوگرافی و رادیولوژی دکتر وفائی شاهی", "operator": null, "phone": "03536297660", "addr:street": null }, "geometry": { "type": "Point", "coordinates": [ 54.3608501, 31.8752184 ] } },
{ "type": "Feature", "properties": { "element": "way", "id": 282876508, "amenity": "hospital", "name": "بیمارستان شهید صدوقی", "operator": null, "phone": null, "addr:street": null }, "geometry": { "type": "Polygon", "coordinates": [ [ [ 54.3780166, 31.8265122 ], [ 54.3818166, 31.8239894 ], [ 54.375432, 31.8169172 ], [ 54.3712781, 31.8196233 ], [ 54.3730012, 31.8215057 ], [ 54.3750935, 31.8238848 ], [ 54.375355, 31.8238195 ], [ 54.3762166, 31.8247737 ], [ 54.3769396, 31.8255841 ], [ 54.3768473, 31.8258587 ], [ 54.377355, 31.8263684 ], [ 54.3777243, 31.8264077 ], [ 54.3780166, 31.8265122 ] ] ] } },
{ "type": "Feature", "properties": { "element": "way", "id": 295950585, "amenity": "hospital", "name": "بیمارستان شهدای کارگر تامین اجتماعی", "operator": null, "phone": null, "addr:street": null }, "geometry": { "type": "Polygon", "coordinates": [ [ [ 54.3974378, 31.8686327 ], [ 54.3994014, 31.868406 ], [ 54.3993878, 31.8683212 ], [ 54.401503, 31.8680769 ], [ 54.4015166, 31.8681617 ], [ 54.4026406, 31.8680319 ], [ 54.4027077, 31.8679602 ], [ 54.4022986, 31.8653098 ], [ 54.4022155, 31.8652494 ], [ 54.3992248, 31.8656184 ], [ 54.3984014, 31.8656765 ], [ 54.3974479, 31.865803 ], [ 54.3972749, 31.8658588 ], [ 54.3971166, 31.8659852 ], [ 54.3970469, 31.8661162 ], [ 54.3970294, 31.8662677 ], [ 54.3970938, 31.8667346 ], [ 54.3971515, 31.866852 ], [ 54.3972561, 31.8669807 ], [ 54.3973781, 31.8671276 ], [ 54.3974572, 31.8673075 ], [ 54.3975209, 31.8673038 ], [ 54.3975239, 31.8673408 ], [ 54.3975383, 31.8675156 ], [ 54.3974747, 31.8675194 ], [ 54.3975364, 31.8680763 ], [ 54.3975042, 31.8681993 ], [ 54.3974076, 31.8683713 ], [ 54.3973567, 31.8685046 ], [ 54.397366, 31.868586 ], [ 54.3974378, 31.8686327 ] ] ] } },
{ "type": "Feature", "properties": { "element": "way", "id": 296124874, "amenity": "hospital", "name": "بیمارستان گودرز", "operator": null, "phone": null, "addr:street": "خیابان مهدی، کوچه شهید ضیاء شریف" }, "geometry": { "type": "Polygon", "coordinates": [ [ [ 54.3763058, 31.8919833 ], [ 54.3755177, 31.8912179 ], [ 54.3758862, 31.8909049 ], [ 54.3757179, 31.8907558 ], [ 54.3756348, 31.8906306 ], [ 54.3754101, 31.8904666 ], [ 54.3757904, 31.8902571 ], [ 54.3758215, 31.8902878 ], [ 54.3758601, 31.8902673 ], [ 54.3758992, 31.8903061 ], [ 54.3761465, 31.8905513 ], [ 54.3763, 31.890708 ], [ 54.3763389, 31.8906761 ], [ 54.3763804, 31.8907171 ], [ 54.3764327, 31.8906784 ], [ 54.3766732, 31.8908985 ], [ 54.3769006, 31.8907195 ], [ 54.3770648, 31.8908809 ], [ 54.3768475, 31.8911444 ], [ 54.3766744, 31.8910301 ], [ 54.3761981, 31.8914682 ], [ 54.376544, 31.8917763 ], [ 54.3763058, 31.8919833 ] ] ] } },
{ "type": "Feature", "properties": { "element": "way", "id": 296125139, "amenity": "clinic", "name": "درمانگاه جوی هرهر", "operator": null, "phone": null, "addr:street": "مهدی" }, "geometry": { "type": "Polygon", "coordinates": [ [ [ 54.3775284, 31.897678 ], [ 54.3779656, 31.8972128 ], [ 54.3777616, 31.8970618 ], [ 54.377304, 31.897532 ], [ 54.3775284, 31.897678 ] ] ] } },
{ "type": "Feature", "properties": { "element": "way", "id": 296125452, "amenity": "hospital", "name": "بیمارستان سید الشهدا یزد", "operator": null, "phone": null, "addr:street": "امام خمینی" }, "geometry": { "type": "Polygon", "coordinates": [ [ [ 54.3764177, 31.9085862 ], [ 54.3775693, 31.9079272 ], [ 54.3775342, 31.9078753 ], [ 54.3772492, 31.9074595 ], [ 54.3760731, 31.9081448 ], [ 54.3764177, 31.9085862 ] ] ] } },
{ "type": "Feature", "properties": { "element": "way", "id": 364570857, "amenity": "clinic", "name": "درمانگاه شبانه روزی دانشگاه یزد", "operator": null, "phone": null, "addr:street": "بلوارجوان" }, "geometry": { "type": "Polygon", "coordinates": [ [ [ 54.3594422, 31.839687 ], [ 54.3593871, 31.8397597 ], [ 54.3592051, 31.8396601 ], [ 54.3593134, 31.8395173 ], [ 54.3593685, 31.8395343 ], [ 54.3593803, 31.8395067 ], [ 54.3594084, 31.8394865 ], [ 54.3594495, 31.8394894 ], [ 54.3594841, 31.8395249 ], [ 54.3595087, 31.8395075 ], [ 54.3596881, 31.8396092 ], [ 54.3595908, 31.8397332 ], [ 54.359496, 31.8396795 ], [ 54.3594422, 31.839687 ] ] ] } },
{ "type": "Feature", "properties": { "element": "way", "id": 364583119, "amenity": "hospital", "name": "بیمارستان خصوصی شاه ولی", "operator": null, "phone": null, "addr:street": null }, "geometry": { "type": "Polygon", "coordinates": [ [ [ 54.3496932, 31.8411589 ], [ 54.3495059, 31.8414326 ], [ 54.3493152, 31.8413384 ], [ 54.3493559, 31.8412789 ], [ 54.3493679, 31.8412079 ], [ 54.3494769, 31.8410486 ], [ 54.3495229, 31.8410714 ], [ 54.3495404, 31.8410458 ], [ 54.3496273, 31.8410887 ], [ 54.349608, 31.8411168 ], [ 54.3496932, 31.8411589 ] ] ] } },
{ "type": "Feature", "properties": { "element": "way", "id": 364612569, "amenity": "hospital", "name": "بیمارستان سوختگی", "operator": null, "phone": null, "addr:street": null }, "geometry": { "type": "Polygon", "coordinates": [ [ [ 54.3391895, 31.901741 ], [ 54.3388059, 31.9014657 ], [ 54.3396996, 31.9006499 ], [ 54.3399902, 31.9009655 ], [ 54.3399052, 31.9010494 ], [ 54.3395928, 31.9013499 ], [ 54.3391895, 31.901741 ] ] ] } },
{ "type": "Feature", "properties": { "element": "way", "id": 380035960, "amenity": "hospital", "name": "بیمارستان افشار", "operator": null, "phone": null, "addr:street": null }, "geometry": { "type": "Polygon", "coordinates": [ [ [ 54.3319678, 31.9122385 ], [ 54.3314436, 31.9127731 ], [ 54.333675, 31.9143499 ], [ 54.3341992, 31.9138153 ], [ 54.3319678, 31.9122385 ] ] ] } },
{ "type": "Feature", "properties": { "element": "way", "id": 383357911, "amenity": "hospital", "name": "بیمارستان مرتاض", "operator": null, "phone": null, "addr:street": "شهید گلدان ساز" }, "geometry": { "type": "Polygon", "coordinates": [ [ [ 54.3850869, 31.8568137 ], [ 54.3847409, 31.8565141 ], [ 54.3850693, 31.8562167 ], [ 54.3842731, 31.8555244 ], [ 54.3840104, 31.8561175 ], [ 54.3839456, 31.8565278 ], [ 54.3841454, 31.8565665 ], [ 54.3847932, 31.8570665 ], [ 54.3850869, 31.8568137 ] ] ] } },
{ "type": "Feature", "properties": { "element": "way", "id": 474181706, "amenity": "clinic", "name": "درمانگاه فرهنگیان", "operator": null, "phone": null, "addr:street": null }, "geometry": { "type": "Polygon", "coordinates": [ [ [ 54.3488516, 31.9003629 ], [ 54.3490889, 31.9005307 ], [ 54.3494171, 31.9002085 ], [ 54.3493064, 31.9001212 ], [ 54.349081, 31.9003327 ], [ 54.3489584, 31.9002487 ], [ 54.3488516, 31.9003629 ] ] ] } },
{ "type": "Feature", "properties": { "element": "way", "id": 515501857, "amenity": "hospital", "name": "فاطمه الزهرا", "operator": null, "phone": null, "addr:street": null }, "geometry": { "type": "Polygon", "coordinates": [ [ [ 54.3274347, 31.9008902 ], [ 54.327703, 31.9004393 ], [ 54.3273704, 31.9002845 ], [ 54.3271719, 31.9005441 ], [ 54.3269895, 31.9004575 ], [ 54.3268607, 31.9006443 ], [ 54.3274347, 31.9008902 ] ] ] } },
{ "type": "Feature", "properties": { "element": "way", "id": 518565364, "amenity": "hospital", "name": "مرکز پزشکی هراتی درمانگاه تامین اجتماعی", "operator": null, "phone": null, "addr:street": "فرخی" }, "geometry": { "type": "Polygon", "coordinates": [ [ [ 54.3628702, 31.8875925 ], [ 54.3627039, 31.8874673 ], [ 54.3629694, 31.887194 ], [ 54.3634334, 31.8866952 ], [ 54.363471, 31.886718 ], [ 54.3635541, 31.8866223 ], [ 54.3639323, 31.886964 ], [ 54.3636024, 31.8873215 ], [ 54.3635005, 31.887235 ], [ 54.363074, 31.8876586 ], [ 54.3629184, 31.887547 ], [ 54.3628702, 31.8875925 ] ] ] } },
{ "type": "Feature", "properties": { "element": "way", "id": 574740942, "amenity": "hospital", "name": "بیمارستان شهید بهشتی", "operator": null, "phone": null, "addr:street": null }, "geometry": { "type": "Polygon", "coordinates": [ [ [ 54.2231428, 31.7647585 ], [ 54.2224957, 31.7653091 ], [ 54.2215347, 31.7660823 ], [ 54.2206842, 31.766729 ], [ 54.2192652, 31.7660903 ], [ 54.217452, 31.7652861 ], [ 54.2173488, 31.7629886 ], [ 54.2177018, 31.7625993 ], [ 54.2184972, 31.7633296 ], [ 54.220622, 31.7614975 ], [ 54.2214613, 31.7628382 ], [ 54.2231428, 31.7647585 ] ] ] } },
{ "type": "Feature", "properties": { "element": "way", "id": 675141531, "amenity": "clinic", "name": "کلینیک اکبری", "operator": null, "phone": null, "addr:street": null }, "geometry": { "type": "Polygon", "coordinates": [ [ [ 54.3786552, 31.8398108 ], [ 54.379206, 31.8400902 ], [ 54.3790211, 31.8403556 ], [ 54.3781373, 31.8404045 ], [ 54.3786552, 31.8398108 ] ] ] } },
{ "type": "Feature", "properties": { "element": "way", "id": 675141664, "amenity": "clinic", "name": "کلینیک امام رضا", "operator": null, "phone": null, "addr:street": null }, "geometry": { "type": "Polygon", "coordinates": [ [ [ 54.3850163, 31.8448265 ], [ 54.3851177, 31.8449224 ], [ 54.3853494, 31.8447458 ], [ 54.385248, 31.8446499 ], [ 54.3850163, 31.8448265 ] ] ] } },
{ "type": "Feature", "properties": { "element": "way", "id": 676236165, "amenity": "hospital", "name": "بیمارستان شهید رهنمون (فرخی)", "operator": null, "phone": null, "addr:street": null }, "geometry": { "type": "Polygon", "coordinates": [ [ [ 54.3611762, 31.8862616 ], [ 54.3600853, 31.8853516 ], [ 54.3596083, 31.8854016 ], [ 54.3596398, 31.8858962 ], [ 54.3596598, 31.8864648 ], [ 54.3599889, 31.8869602 ], [ 54.3598395, 31.8872302 ], [ 54.3606535, 31.8873545 ], [ 54.3611707, 31.8863857 ], [ 54.3611932, 31.8863608 ], [ 54.3611762, 31.8862616 ] ] ] } },
{ "type": "Feature", "properties": { "element": "way", "id": 676265714, "amenity": "hospital", "name": null, "operator": null, "phone": null, "addr:street": null }, "geometry": { "type": "Polygon", "coordinates": [ [ [ 54.2888913, 31.8320586 ], [ 54.2902558, 31.8329104 ], [ 54.2888215, 31.8342451 ], [ 54.2876205, 31.833457 ], [ 54.2877278, 31.8332794 ], [ 54.2880012, 31.8332702 ], [ 54.2887947, 31.8324867 ], [ 54.2887358, 31.8323136 ], [ 54.2888913, 31.8320586 ] ] ] } },
{ "type": "Feature", "properties": { "element": "way", "id": 676265716, "amenity": "hospital", "name": "بیمارستان صنعت", "operator": null, "phone": null, "addr:street": null }, "geometry": { "type": "Polygon", "coordinates": [ [ [ 54.2925914, 31.8294506 ], [ 54.292335, 31.8294698 ], [ 54.292338, 31.8295672 ], [ 54.2922626, 31.8296492 ], [ 54.2921133, 31.8296608 ], [ 54.2921434, 31.8297312 ], [ 54.2920198, 31.8297325 ], [ 54.2920439, 31.8299735 ], [ 54.292433, 31.8302413 ], [ 54.2925673, 31.8301272 ], [ 54.2925462, 31.8300503 ], [ 54.2927347, 31.8300657 ], [ 54.2927302, 31.8298749 ], [ 54.2930605, 31.8298582 ], [ 54.2931344, 31.8298672 ], [ 54.2931148, 31.8297685 ], [ 54.2932445, 31.8297531 ], [ 54.2932264, 31.8296506 ], [ 54.2930801, 31.8296557 ], [ 54.2931028, 31.8295686 ], [ 54.2928388, 31.8295699 ], [ 54.2928343, 31.8294494 ], [ 54.2929187, 31.8294571 ], [ 54.2928961, 31.8293956 ], [ 54.2929836, 31.8294058 ], [ 54.2929776, 31.8292623 ], [ 54.2928086, 31.8292572 ], [ 54.2928162, 31.8291726 ], [ 54.2924044, 31.8291957 ], [ 54.2924225, 31.8294033 ], [ 54.2925749, 31.8293956 ], [ 54.2925914, 31.8294506 ] ] ] } },
{ "type": "Feature", "properties": { "element": "way", "id": 676265718, "amenity": "hospital", "name": "بیمارستان صنعت", "operator": null, "phone": null, "addr:street": null }, "geometry": { "type": "Polygon", "coordinates": [ [ [ 54.2922932, 31.828866 ], [ 54.2894381, 31.831616 ], [ 54.2907, 31.8324128 ], [ 54.2938067, 31.8294302 ], [ 54.2929908, 31.8288674 ], [ 54.292932, 31.8288248 ], [ 54.2928621, 31.8288125 ], [ 54.2927759, 31.8288183 ], [ 54.2926794, 31.8288413 ], [ 54.2925623, 31.8288494 ], [ 54.2924631, 31.8288329 ], [ 54.2923594, 31.8288353 ], [ 54.2922932, 31.828866 ] ] ] } },
{ "type": "Feature", "properties": { "element": "way", "id": 750346134, "amenity": "hospital", "name": "بیمارستان بهمن یزد", "operator": "دکتر یاسینی", "phone": null, "addr:street": null }, "geometry": { "type": "Polygon", "coordinates": [ [ [ 54.3748929, 31.8787778 ], [ 54.375364, 31.8789091 ], [ 54.3750753, 31.8795955 ], [ 54.3744987, 31.8793564 ], [ 54.3747374, 31.8790056 ], [ 54.3748929, 31.8787778 ] ] ] } },
{ "type": "Feature", "properties": { "element": "way", "id": 750346531, "amenity": "clinic", "name": "مرکز بهداشت یزد", "operator": null, "phone": null, "addr:street": null }, "geometry": { "type": "Polygon", "coordinates": [ [ [ 54.3752926, 31.8796525 ], [ 54.3760221, 31.878869 ], [ 54.37514, 31.8782927 ], [ 54.3749003, 31.8787589 ], [ 54.3754057, 31.8789039 ], [ 54.3751048, 31.8795841 ], [ 54.3752926, 31.8796525 ] ] ] } },
{ "type": "Feature", "properties": { "element": "way", "id": 906346656, "amenity": "clinic", "name": "کلینیک آبادیس", "operator": null, "phone": null, "addr:street": "دکتر مرتاض" }, "geometry": { "type": "Polygon", "coordinates": [ [ [ 54.3839578, 31.8555603 ], [ 54.3835589, 31.8554643 ], [ 54.3834692, 31.8556907 ], [ 54.3838729, 31.8557726 ], [ 54.3839578, 31.8555603 ] ] ] } },
{ "type": "Feature", "properties": { "element": "way", "id": 974110679, "amenity": "clinic", "name": "درمانگاه تامین اجتماعی", "operator": null, "phone": null, "addr:street": null }, "geometry": { "type": "Polygon", "coordinates": [ [ [ 54.2275282, 32.0083077 ], [ 54.2283151, 32.0091903 ], [ 54.228881, 32.0087819 ], [ 54.2286792, 32.0085825 ], [ 54.2284748, 32.0083388 ], [ 54.2281706, 32.0081792 ], [ 54.2278589, 32.0081847 ], [ 54.2275282, 32.0083077 ] ] ] } },
{ "type": "Feature", "properties": { "element": "way", "id": 988390993, "amenity": "hospital", "name": "بیمارستان روانپزشکی موسی بن جعفر", "operator": null, "phone": null, "addr:street": null }, "geometry": { "type": "Polygon", "coordinates": [ [ [ 54.2232592, 31.7647832 ], [ 54.2239204, 31.7653427 ], [ 54.2223248, 31.7666914 ], [ 54.2217161, 31.7671599 ], [ 54.2209719, 31.7668178 ], [ 54.2232592, 31.7647832 ] ] ] } },
{ "type": "Feature", "properties": { "element": "way", "id": 988390998, "amenity": "clinic", "name": "درمانگاه تامین اجتماعی تفت", "operator": null, "phone": null, "addr:street": null }, "geometry": { "type": "Polygon", "coordinates": [ [ [ 54.2003247, 31.7390019 ], [ 54.2000473, 31.7392985 ], [ 54.2003709, 31.739472 ], [ 54.2006021, 31.7391883 ], [ 54.2003247, 31.7390019 ] ] ] } },
{ "type": "Feature", "properties": { "element": "way", "id": 1068742975, "amenity": "clinic", "name": "مرکز بهداشتی درمانی امامشهر", "operator": null, "phone": null, "addr:street": null }, "geometry": { "type": "Polygon", "coordinates": [ [ [ 54.3337083, 31.8948648 ], [ 54.3333724, 31.8954534 ], [ 54.3331568, 31.8955057 ], [ 54.3329534, 31.8954168 ], [ 54.3333385, 31.8948308 ], [ 54.3334279, 31.8947733 ], [ 54.3335388, 31.8947733 ], [ 54.3337083, 31.8948648 ] ] ] } },
{ "type": "Feature", "properties": { "element": "way", "id": 1068750591, "amenity": "hospital", "name": null, "operator": null, "phone": null, "addr:street": null }, "geometry": { "type": "Polygon", "coordinates": [ [ [ 54.3050595, 31.8674342 ], [ 54.3040181, 31.8683421 ], [ 54.303898, 31.8682584 ], [ 54.3038117, 31.8673033 ], [ 54.3043755, 31.8668664 ], [ 54.3050595, 31.8674342 ] ] ] } }
]
}
