{
"type": "FeatureCollection",
"name": "pharmacies_osmnx",
"crs": { "type": "name", "properties": { "name": "urn:ogc:def:crs:OGC:1.3:CRS84" } },
"features": [
{ "type": "Feature", "properties": { "element": "node", "id": 2733630669, "amenity": "pharmacy", "healthcare": "pharmacy", "name": "داروخانه دکتر میرشمسی", "addr:city": null, "addr:street": null, "name:en": null, "opening_hours": null, "phone": null, "dispensing": null, "addr:housenumber": null, "operator": null, "mobile": null }, "geometry": { "type": "Point", "coordinates": [ 54.3616165, 31.9146124 ] } },
{ "type": "Feature", "properties": { "element": "node", "id": 2999081126, "amenity": "pharmacy", "healthcare": "pharmacy", "name": null, "addr:city": "yazd", "addr:street": "امام خمینی", "name:en": null, "opening_hours": null, "phone": null, "dispensing": null, "addr:housenumber": null, "operator": null, "mobile": null }, "geometry": { "type": "Point", "coordinates": [ 54.3778147, 31.9079492 ] } },
{ "type": "Feature", "properties": { "element": "node", "id": 2999419460, "amenity": "pharmacy", "healthcare": null, "name": "داروخانه فرخی", "addr:city": "yazd", "addr:street": "فرخی", "name:en": "farrokhy pharmacy", "opening_hours": "24/7", "phone": null, "dispensing": null, "addr:housenumber": null, "operator": null, "mobile": null }, "geometry": { "type": "Point", "coordinates": [ 54.360797, 31.8874484 ] } },
{ "type": "Feature", "properties": { "element": "node", "id": 3244128813, "amenity": "pharmacy", "healthcare": null, "name": null, "addr:city": null, "addr:street": null, "name:en": null, "opening_hours": null, "phone": null, "dispensing": null, "addr:housenumber": null, "operator": null, "mobile": null }, "geometry": { "type": "Point", "coordinates": [ 54.3760498, 31.8884242 ] } },
{ "type": "Feature", "properties": { "element": "node", "id": 3279035469, "amenity": "pharmacy", "healthcare": null, "name": null, "addr:city": null, "addr:street": null, "name:en": null, "opening_hours": null, "phone": null, "dispensing": null, "addr:housenumber": null, "operator": null, "mobile": null }, "geometry": { "type": "Point", "coordinates": [ 54.3296689, 31.9005761 ] } },
{ "type": "Feature", "properties": { "element": "node", "id": 3279035492, "amenity": "pharmacy", "healthcare": null, "name": null, "addr:city": null, "addr:street": null, "name:en": null, "opening_hours": null, "phone": null, "dispensing": null, "addr:housenumber": null, "operator": null, "mobile": null }, "geometry": { "type": "Point", "coordinates": [ 54.3253464, 31.9075152 ] } },
{ "type": "Feature", "properties": { "element": "node", "id": 4231106497, "amenity": "pharmacy", "healthcare": "pharmacy", "name": "داروخانه دکتر انتظاری", "addr:city": null, "addr:street": null, "name:en": null, "opening_hours": null, "phone": null, "dispensing": null, "addr:housenumber": null, "operator": null, "mobile": null }, "geometry": { "type": "Point", "coordinates": [ 54.2319433, 31.9905972 ] } },
{ "type": "Feature", "properties": { "element": "node", "id": 4231107800, "amenity": "pharmacy", "healthcare": "pharmacy", "name": "داروخانه دکتر شجاع الدینی", "addr:city": null, "addr:street": null, "name:en": null, "opening_hours": null, "phone": null, "dispensing": null, "addr:housenumber": null, "operator": null, "mobile": null }, "geometry": { "type": "Point", "coordinates": [ 54.2290286, 31.9893687 ] } },
{ "type": "Feature", "properties": { "element": "node", "id": 4231111127, "amenity": "pharmacy", "healthcare": "pharmacy", "name": "داروخانه دکتر بابایی", "addr:city": null, "addr:street": null, "name:en": null, "opening_hours": null, "phone": null, "dispensing": null, "addr:housenumber": null, "operator": null, "mobile": null }, "geometry": { "type": "Point", "coordinates": [ 54.2279538, 31.9947161 ] } },
{ "type": "Feature", "properties": { "element": "node", "id": 4289119689, "amenity": "pharmacy", "healthcare": null, "name": "داروخانه دکتر کرامتی", "addr:city": null, "addr:street": null, "name:en": null, "opening_hours": null, "phone": null, "dispensing": null, "addr:housenumber": null, "operator": null, "mobile": null }, "geometry": { "type": "Point", "coordinates": [ 54.3517678, 31.8444958 ] } },
{ "type": "Feature", "properties": { "element": "node", "id": 4289121692, "amenity": "pharmacy", "healthcare": null, "name": "داروخانه دکتر حیدری", "addr:city": null, "addr:street": "بلوار پروفسور حسابی", "name:en": null, "opening_hours": null, "phone": "+98 35 3821 5999", "dispensing": null, "addr:housenumber": null, "operator": null, "mobile": null }, "geometry": { "type": "Point", "coordinates": [ 54.3602142, 31.8450189 ] } },
{ "type": "Feature", "properties": { "element": "node", "id": 4362369191, "amenity": "pharmacy", "healthcare": "pharmacy", "name": "داروخانه شبانه روزی دکتر سهروردی", "addr:city": null, "addr:street": "میدان ابوذر", "name:en": null, "opening_hours": "24/7", "phone": null, "dispensing": null, "addr:housenumber": null, "operator": null, "mobile": null }, "geometry": { "type": "Point", "coordinates": [ 54.3856821, 31.8440285 ] } },
{ "type": "Feature", "properties": { "element": "node", "id": 4942434822, "amenity": "pharmacy", "healthcare": null, "name": "داروخانه شبانه روزی ابن سینا", "addr:city": null, "addr:street": "بلوار جمهوری اسلامی", "name:en": null, "opening_hours": "24/7", "phone": null, "dispensing": null, "addr:housenumber": null, "operator": null, "mobile": null }, "geometry": { "type": "Point", "coordinates": [ 54.3338049, 31.9146958 ] } },
{ "type": "Feature", "properties": { "element": "node", "id": 5028991643, "amenity": "pharmacy", "healthcare": "pharmacy", "name": null, "addr:city": null, "addr:street": null, "name:en": null, "opening_hours": null, "phone": null, "dispensing": null, "addr:housenumber": null, "operator": null, "mobile": null }, "geometry": { "type": "Point", "coordinates": [ 54.3738634, 31.9027213 ] } },
{ "type": "Feature", "properties": { "element": "node", "id": 5035014721, "amenity": "pharmacy", "healthcare": null, "name": "داروخانه دکتر ذبیحی", "addr:city": null, "addr:street": null, "name:en": "Pharmacy", "opening_hours": null, "phone": null, "dispensing": null, "addr:housenumber": null, "operator": null, "mobile": null }, "geometry": { "type": "Point", "coordinates": [ 54.3809815, 31.8599496 ] } },
{ "type": "Feature", "properties": { "element": "node", "id": 5222131187, "amenity": "pharmacy", "healthcare": "pharmacy", "name": "داروخانه", "addr:city": null, "addr:street": null, "name:en": null, "opening_hours": null, "phone": null, "dispensing": null, "addr:housenumber": null, "operator": null, "mobile": null }, "geometry": { "type": "Point", "coordinates": [ 54.3763871, 31.8248053 ] } },
{ "type": "Feature", "properties": { "element": "node", "id": 5687363901, "amenity": "pharmacy", "healthcare": "pharmacy", "name": "داروخانه شبانه روزی دکتر شفیعی", "addr:city": null, "addr:street": null, "name:en": null, "opening_hours": null, "phone": null, "dispensing": "yes", "addr:housenumber": null, "operator": null, "mobile": null }, "geometry": { "type": "Point", "coordinates": [ 54.3705098, 31.8381677 ] } },
{ "type": "Feature", "properties": { "element": "node", "id": 6140877690, "amenity": "pharmacy", "healthcare": "pharmacy", "name": null, "addr:city": null, "addr:street": null, "name:en": null, "opening_hours": null, "phone": null, "dispensing": null, "addr:housenumber": null, "operator": null, "mobile": null }, "geometry": { "type": "Point", "coordinates": [ 54.376041, 31.9054022 ] } },
{ "type": "Feature", "properties": { "element": "node", "id": 6329261998, "amenity": "pharmacy", "healthcare": "pharmacy", "name": "داروخانه شبانه روزی", "addr:city": null, "addr:street": null, "name:en": null, "opening_hours": "24/7", "phone": null, "dispensing": null, "addr:housenumber": null, "operator": null, "mobile": null }, "geometry": { "type": "Point", "coordinates": [ 54.3739341, 31.8795414 ] } },
{ "type": "Feature", "properties": { "element": "node", "id": 6424943085, "amenity": "pharmacy", "healthcare": "pharmacy", "name": "داروخانه آرمان", "addr:city": null, "addr:street": "خیابان چمران", "name:en": "Arman Pharmacy", "opening_hours": "Sa-Th 09:00-14:00, 17:00-22:00", "phone": null, "dispensing": null, "addr:housenumber": "035 3623 0538", "operator": null, "mobile": null }, "geometry": { "type": "Point", "coordinates": [ 54.3767533, 31.8776495 ] } },
{ "type": "Feature", "properties": { "element": "node", "id": 6429807885, "amenity": "pharmacy", "healthcare": null, "name": "داروخانه دکتر قاسمی", "addr:city": null, "addr:street": null, "name:en": null, "opening_hours": null, "phone": null, "dispensing": null, "addr:housenumber": null, "operator": null, "mobile": null }, "geometry": { "type": "Point", "coordinates": [ 54.3770472, 31.8744475 ] } },
{ "type": "Feature", "properties": { "element": "node", "id": 6466747285, "amenity": "pharmacy", "healthcare": null, "name": "داروخانه دکتر مربی", "addr:city": null, "addr:street": null, "name:en": null, "opening_hours": null, "phone": null, "dispensing": null, "addr:housenumber": null, "operator": null, "mobile": null }, "geometry": { "type": "Point", "coordinates": [ 54.3773274, 31.8717052 ] } },
{ "type": "Feature", "properties": { "element": "node", "id": 6506253785, "amenity": "pharmacy", "healthcare": null, "name": "داروخانه دکتر وکیلیان", "addr:city": null, "addr:street": null, "name:en": null, "opening_hours": null, "phone": null, "dispensing": null, "addr:housenumber": null, "operator": null, "mobile": null }, "geometry": { "type": "Point", "coordinates": [ 54.3846753, 31.8714012 ] } },
{ "type": "Feature", "properties": { "element": "node", "id": 6536121285, "amenity": "pharmacy", "healthcare": "pharmacy", "name": "داروخانه دکتر لطفعلیانی", "addr:city": null, "addr:street": null, "name:en": null, "opening_hours": null, "phone": null, "dispensing": null, "addr:housenumber": null, "operator": null, "mobile": null }, "geometry": { "type": "Point", "coordinates": [ 54.3302001, 31.8759837 ] } },
{ "type": "Feature", "properties": { "element": "node", "id": 6776356866, "amenity": "pharmacy", "healthcare": "pharmacy", "name": "داروخانه امامی", "addr:city": null, "addr:street": null, "name:en": null, "opening_hours": null, "phone": null, "dispensing": null, "addr:housenumber": null, "operator": null, "mobile": null }, "geometry": { "type": "Point", "coordinates": [ 54.3932347, 31.8907966 ] } },
{ "type": "Feature", "properties": { "element": "node", "id": 6776368286, "amenity": "pharmacy", "healthcare": "pharmacy", "name": "داروخانه", "addr:city": null, "addr:street": null, "name:en": null, "opening_hours": null, "phone": null, "dispensing": null, "addr:housenumber": null, "operator": null, "mobile": null }, "geometry": { "type": "Point", "coordinates": [ 54.3935686, 31.8917082 ] } },
{ "type": "Feature", "properties": { "element": "node", "id": 10106270967, "amenity": "pharmacy", "healthcare": null, "name": "داروخانه دکتر ابریشم دکتر افلاطونیان", "addr:city": null, "addr:street": null, "name:en": null, "opening_hours": null, "phone": null, "dispensing": null, "addr:housenumber": null, "operator": null, "mobile": null }, "geometry": { "type": "Point", "coordinates": [ 54.3569639, 31.8756307 ] } },
{ "type": "Feature", "properties": { "element": "node", "id": 10698236708, "amenity": "pharmacy", "healthcare": "pharmacy", "name": "داروخانه دکتر شیروانی", "addr:city": "یزد", "addr:street": "اسکان", "name:en": null, "opening_hours": "24/7", "phone": "+98 35 3730 8252", "dispensing": null, "addr:housenumber": null, "operator": "رحیم شیروانی دخت", "mobile": null }, "geometry": { "type": "Point", "coordinates": [ 54.30628, 31.8885806 ] } },
{ "type": "Feature", "properties": { "element": "node", "id": 10839248662, "amenity": "pharmacy", "healthcare": "pharmacy", "name": "داروخانه دکتر ثقفی", "addr:city": "yazd", "addr:street": "شهید محمود دایی", "name:en": null, "opening_hours": "Mo-Su 08:00-22:00", "phone": "+98 913 450 4060", "dispensing": null, "addr:housenumber": null, "operator": "دکتر فاطمه ثقفی", "mobile": null }, "geometry": { "type": "Point", "coordinates": [ 54.3603054, 31.8854201 ] } },
{ "type": "Feature", "properties": { "element": "node", "id": 11563360286, "amenity": "pharmacy", "healthcare": "pharmacy", "name": "داروخانه شبانه روزی دکتر حکیمی", "addr:city": null, "addr:street": null, "name:en": null, "opening_hours": null, "phone": null, "dispensing": null, "addr:housenumber": null, "operator": null, "mobile": null }, "geometry": { "type": "Point", "coordinates": [ 54.3557718, 31.8882879 ] } },
{ "type": "Feature", "properties": { "element": "node", "id": 11639886176, "amenity": "pharmacy", "healthcare": "pharmacy", "name": "داروخانه هلال احمر یزد", "addr:city": "یزد", "addr:street": "منتظر قائم", "name:en": null, "opening_hours": null, "phone": null, "dispensing": null, "addr:housenumber": null, "operator": null, "mobile": null }, "geometry": { "type": "Point", "coordinates": [ 54.3677108, 31.8817845 ] } },
{ "type": "Feature", "properties": { "element": "node", "id": 11699085902, "amenity": "pharmacy", "healthcare": "pharmacy", "name": "داروخانه دکتر لطفی", "addr:city": null, "addr:street": null, "name:en": null, "opening_hours": null, "phone": null, "dispensing": null, "addr:housenumber": null, "operator": null, "mobile": null }, "geometry": { "type": "Point", "coordinates": [ 54.2929378, 31.9337037 ] } },
{ "type": "Feature", "properties": { "element": "node", "id": 11944025399, "amenity": "pharmacy", "healthcare": "pharmacy", "name": "داروخانه", "addr:city": "یزد", "addr:street": "طالقانی", "name:en": null, "opening_hours": null, "phone": null, "dispensing": null, "addr:housenumber": null, "operator": null, "mobile": null }, "geometry": { "type": "Point", "coordinates": [ 54.3568424, 31.884811 ] } },
{ "type": "Feature", "properties": { "element": "node", "id": 11949178792, "amenity": "pharmacy", "healthcare": "pharmacy", "name": "داروخانه", "addr:city": "یزد", "addr:street": "دکتر مجیبیان", "name:en": null, "opening_hours": null, "phone": null, "dispensing": null, "addr:housenumber": null, "operator": null, "mobile": null }, "geometry": { "type": "Point", "coordinates": [ 54.3794386, 31.8260977 ] } },
{ "type": "Feature", "properties": { "element": "node", "id": 12105841502, "amenity": "pharmacy", "healthcare": null, "name": "داروخانه دکتر کفیری", "addr:city": null, "addr:street": "بلوار شهید دشتی", "name:en": "Dr Kafiri Pharmacy", "opening_hours": "24/7", "phone": "035 3823 5529", "dispensing": null, "addr:housenumber": null, "operator": null, "mobile": null }, "geometry": { "type": "Point", "coordinates": [ 54.3965948, 31.8248583 ] } },
{ "type": "Feature", "properties": { "element": "node", "id": 12732945714, "amenity": "pharmacy", "healthcare": "pharmacy", "name": "داروخانه دکتر نبی میبدی", "addr:city": "یزد", "addr:street": "بلوار شهید مطهری", "name:en": null, "opening_hours": "Mo-Su 08:00-22:00", "phone": null, "dispensing": null, "addr:housenumber": null, "operator": "دکتر نبی میبدی", "mobile": "09908305001" }, "geometry": { "type": "Point", "coordinates": [ 54.3497559, 31.8986518 ] } }
]
}
